[
  {
    "date": "4/24/2016",
    "name": "2016 Gettysburg North-South Marathon & 10 Miler",
    "city": "Gettysburg",
    "state": "PA",
    "longitude": -77.2310907,
    "latitude": 39.8309399,
    "run_types": "10 mi, marathon"
  },
  {
    "date": "4/24/2016",
    "name": "Big Sur Int. Marathon",
    "city": "Carmel",
    "state": "CA",
    "longitude": -55.980469,
    "latitude": -34.7875445,
    "run_types": "marathon"
  },
  {
    "date": "4/24/2016",
    "name": "BuffaloRunners.com 6 Hour Distance Classic",
    "city": "Amherst",
    "state": "NY",
    "longitude": -78.7997615,
    "latitude": 42.9783924,
    "run_types": "5.2177 km, marathon"
  },
  {
    "date": "4/24/2016",
    "name": "Oklahoma City Memorial Marathon",
    "city": "Oklahoma City",
    "state": "OK",
    "longitude": -97.5170535,
    "latitude": 35.4729886,
    "run_types": "1.2 mi fun run, 5 km fun run, half-marathon, half-marathon, marathon, marathon"
  },
  {
    "date": "4/29-30/16",
    "name": "Christie Clinic Illinois Marathon",
    "city": "Champaign",
    "state": "IL",
    "longitude": -88.2433828,
    "latitude": 40.1164205,
    "run_types": "5 km, 10 km, half-marathon, marathon relay, marathon"
  },
  {
    "date": "5/1/2016",
    "name": "Avenue of the Giants Marathon",
    "city": "Arcata",
    "state": "CA",
    "longitude": -124.0828395,
    "latitude": 40.8665166,
    "run_types": "10 km, half-marathon, marathon"
  },
  {
    "date": "5/1/2016",
    "name": "Lincoln Marathon/Half-Marathon",
    "city": "Lincoln",
    "state": "NE",
    "longitude": -96.6674004,
    "latitude": 40.8000554,
    "run_types": "half-marathon, marathon"
  },
  {
    "date": "5/7/2016",
    "name": "Wisconsin Marathon & Half Marathon",
    "city": "Kenosha",
    "state": "WI",
    "longitude": -87.8212262,
    "latitude": 42.5846773,
    "run_types": "5 km, half-marathon, marathon"
  },
  {
    "date": "5/12-15/16",
    "name": "3 Days at the Fair",
    "city": "Augusta",
    "state": "NJ",
    "longitude": -74.7282199,
    "latitude": 41.1289854,
    "run_types": "1 mi, marathon, marathon, marathon, marathon, 50 km, 50 km, 50 km, 50 km"
  },
  {
    "date": "5/13-14/16",
    "name": "Brookings Marathon, Half Marathon, Relay, 5K",
    "city": "Brookings",
    "state": "SD",
    "longitude": -96.7984396,
    "latitude": 44.3114605,
    "run_types": "5 km, half-marathon, marathon, marathon relay"
  },
  {
    "date": "5/21/2016",
    "name": "Blackfoot Marathon and More",
    "city": "Blackfoot",
    "state": "ID",
    "longitude": -112.3483568,
    "latitude": 43.1900388,
    "run_types": "5 km, 10 km, half-marathon, marathon"
  },
  {
    "date": "5/21/2016",
    "name": "Ogden Marathon",
    "city": "Ogden",
    "state": "UT",
    "longitude": -111.9738428,
    "latitude": 41.2230048,
    "run_types": "5 km, half-marathon, marathon"
  },
  {
    "date": "5/22/2016",
    "name": "Cellcom Green Bay Marathon",
    "city": "Green Bay",
    "state": "WI",
    "longitude": -88.0248316,
    "latitude": 44.5299412,
    "run_types": "marathon"
  },
  {
    "date": "5/28/2016",
    "name": "Pacific Northwest Marathon",
    "city": "Eugene",
    "state": "OR",
    "longitude": -123.0950505,
    "latitude": 44.0505054,
    "run_types": "5 km, 21.09798 km, marathon"
  },
  {
    "date": "5/28-29/16",
    "name": "Med City Marathon Weekend",
    "city": "Rochester",
    "state": "MN",
    "longitude": -92.4630214,
    "latitude": 44.0233269,
    "run_types": "5 km fun run, 20 mi, half-marathon, marathon relay, marathon"
  },
  {
    "date": "5/29/2016",
    "name": "People's United Bank Vermont City Marathon & Relays",
    "city": "Burlington",
    "state": "VT",
    "longitude": -73.211494,
    "latitude": 44.4723989,
    "run_types": "marathon"
  },
  {
    "date": "6/4/2016",
    "name": "God's Country Marathon",
    "city": "Galeton",
    "state": "PA",
    "longitude": -77.641931,
    "latitude": 41.7331246,
    "run_types": "half-marathon, marathon, marathon relay"
  },
  {
    "date": "6/12/2016",
    "name": "Light at the End of the Tunnel Marathon",
    "city": "North Bend",
    "state": "WA",
    "longitude": -121.786249,
    "latitude": 47.4938343,
    "run_types": "marathon"
  },
  {
    "date": "6/18/2016",
    "name": "Grandma's Marathon - Garry Bjorklund Half Marathon",
    "city": "Duluth",
    "state": "MN",
    "longitude": -92.1251217,
    "latitude": 46.7729322,
    "run_types": "half-marathon, marathon, marathon"
  },
  {
    "date": "6/18/2016",
    "name": "The Great Run",
    "city": "Cranberry Isles",
    "state": "ME",
    "longitude": -68.2369584,
    "latitude": 44.2550808,
    "run_types": "6 hr relay, 6 hr, marathon"
  },
  {
    "date": "6/24-26/16",
    "name": "Bay of Fundy International Marathon",
    "city": "Lubec",
    "state": "ME",
    "longitude": -66.9841452,
    "latitude": 44.8606355,
    "run_types": "1 mi fun run, 10 km, half-marathon, marathon"
  },
  {
    "date": "6/25/2016",
    "name": "Run4Troops",
    "city": "Dubuque",
    "state": "IA",
    "longitude": -90.6647966,
    "latitude": 42.5006217,
    "run_types": "marathon relay, marathon"
  },
  {
    "date": "6/25-26/16",
    "name": "Running with the Devil",
    "city": "Las Vegas",
    "state": "NV",
    "longitude": -115.1492249,
    "latitude": 36.1662859,
    "run_types": "5 km, 5 km, 10 km, 10 km, half-marathon, half-marathon, marathon, 50 mi, 50 km, 100 mi"
  },
  {
    "date": "7/16/2016",
    "name": "Aspen Valley Marathon",
    "city": "Aspen",
    "state": "CO",
    "longitude": -106.8235605,
    "latitude": 39.1911128,
    "run_types": "5 km fun run, half-marathon, marathon"
  },
  {
    "date": "7/31/2016",
    "name": "Bearfest Marathon",
    "city": "Wrangell",
    "state": "AK",
    "longitude": -132.30094523594,
    "latitude": 56.4156225,
    "run_types": "21.097 km, marathon"
  },
  {
    "date": "7/31/2016",
    "name": "Jack and Jill Downhill Marathon and Half Marathon",
    "city": "North Bend",
    "state": "WA",
    "longitude": -121.786249,
    "latitude": 47.4938343,
    "run_types": "marathon"
  },
  {
    "date": "8/20-21/16",
    "name": "Extraterrestrial Full Moon Midnight 51K, Marathon, 1/2, 10K and 5K",
    "city": "Rachel",
    "state": "NV",
    "longitude": -115.7483609,
    "latitude": 37.6413209,
    "run_types": "5 km, 10 km, half-marathon, marathon, 51 km"
  },
  {
    "date": "9/4/2016",
    "name": "Kauai Marathon and Half Marathon",
    "city": "Koloa",
    "state": "HI",
    "longitude": -159.4691666,
    "latitude": 21.9066667,
    "run_types": "half-marathon, marathon"
  },
  {
    "date": "9/17-18/16",
    "name": "Maui Marathon, Half Marathon and Associated Runs",
    "city": "Lahaina",
    "state": "HI",
    "longitude": -156.6762728,
    "latitude": 20.872684,
    "run_types": "1 mi, 5 km, half-marathon, marathon"
  },
  {
    "date": "9/18/2016",
    "name": "DICK'S Greater Binghamton Marathon",
    "city": "Vestal",
    "state": "NY",
    "longitude": -76.0538129,
    "latitude": 42.0850747,
    "run_types": "1 km fun run, 5 km race walk, half-marathon, marathon, marathon relay"
  },
  {
    "date": "9/18/2016",
    "name": "Rochester Marathon, Half Marathon & Relay",
    "city": "Rochester",
    "state": "NY",
    "longitude": -77.6106860508176,
    "latitude": 43.1854754,
    "run_types": "half-marathon, marathon"
  },
  {
    "date": "9/18/2016",
    "name": "Tunnel Light Marathon",
    "city": "North Bend",
    "state": "WA",
    "longitude": -121.786249,
    "latitude": 47.4938343,
    "run_types": "marathon"
  },
  {
    "date": "9/23-25/16",
    "name": "Adirondack Marathon Distance Festival",
    "city": "Schroon Lake",
    "state": "NY",
    "longitude": -73.7609634,
    "latitude": 43.8386732,
    "run_types": "1 km fun run, 5 km, 10 km, half-marathon, marathon, marathon relay"
  },
  {
    "date": "9/24/2016",
    "name": "Platte Valley Companies Monument Marathon",
    "city": "Scottsbluff",
    "state": "NE",
    "longitude": -103.6671661,
    "latitude": 41.8666341,
    "run_types": "half-marathon, marathon"
  },
  {
    "date": "9/24-25/16",
    "name": "Quad Cities Marathon",
    "city": "Moline",
    "state": "IL",
    "longitude": -90.5151341,
    "latitude": 41.5067003,
    "run_types": "5 km, half-marathon, marathon"
  },
  {
    "date": "9/25/2016",
    "name": "Bellingham Bay Marathon",
    "city": "Bellingham",
    "state": "WA",
    "longitude": -122.4788601,
    "latitude": 48.754402,
    "run_types": "5 km fun run, 10 km fun run, half-marathon walk, half-marathon, marathon walk, marathon"
  },
  {
    "date": "10/2-10/16*",
    "name": "Boulder Backroads Marathon",
    "city": "Boulder",
    "state": "CO",
    "longitude": -105.2705455,
    "latitude": 40.0149856,
    "run_types": "10 km, half-marathon, marathon"
  },
  {
    "date": "10/9/2016",
    "name": "Bank of America Chicago Marathon",
    "city": "Chicago",
    "state": "IL",
    "longitude": -87.6244211,
    "latitude": 41.8755546,
    "run_types": "marathon"
  },
  {
    "date": "10/9/2016",
    "name": "City Of Trees Marathon",
    "city": "Boise",
    "state": "ID",
    "longitude": -116.2008349,
    "latitude": 43.61656,
    "run_types": "half-marathon, marathon"
  },
  {
    "date": "10/9/2016",
    "name": "Medtronic Twin Cities Marathon",
    "city": "Saint Paul",
    "state": "MN",
    "longitude": -93.1015025,
    "latitude": 44.9504037,
    "run_types": "marathon"
  },
  {
    "date": "10/9/2016",
    "name": "Mohawk Hudson River Marathon & Half Marathon",
    "city": "Schenectady",
    "state": "NY",
    "longitude": -74.0216719,
    "latitude": 42.8095455,
    "run_types": "half-marathon, marathon"
  },
  {
    "date": "10/15/2016",
    "name": "Des Plaines River Trail Marathon",
    "city": "Vernon Hills",
    "state": "IL",
    "longitude": -87.9795187,
    "latitude": 42.2194686,
    "run_types": "marathon"
  },
  {
    "date": "10/16/2016",
    "name": "Mount Desert Island Marathon, Half, Team Relay",
    "city": "Bar Harbor",
    "state": "ME",
    "longitude": -68.2118569811003,
    "latitude": 44.3864565,
    "run_types": "1 mi fun run, half-marathon, marathon walk, marathon, marathon relay"
  },
  {
    "date": "10/22/2016",
    "name": "M2M - Marathon 2 Marathon",
    "city": "Marathon",
    "state": "TX",
    "longitude": -103.2446204,
    "latitude": 30.2051688,
    "run_types": "5 km, 10 km, half-marathon, marathon"
  },
  {
    "date": "10/29-30/16",
    "name": "Cape Cod Marathon(26.2), Relay and Half(13.1)",
    "city": "Falmouth",
    "state": "MA",
    "longitude": -70.6147518,
    "latitude": 41.5514979,
    "run_types": "half-marathon, marathon"
  },
  {
    "date": "10/30/2016",
    "name": "Tri-Cities Marathon",
    "city": "Richland",
    "state": "WA",
    "longitude": -119.2769066,
    "latitude": 46.2778406,
    "run_types": "marathon"
  },
  {
    "date": "11/11-12/16",
    "name": "Novant Health Charlotte Marathon, LLC",
    "city": "Charlotte",
    "state": "NC",
    "longitude": -80.8431267,
    "latitude": 35.2270869,
    "run_types": "1 mi fun run, 5 km, half-marathon, marathon, marathon relay"
  },
  {
    "date": "11/19/2016",
    "name": "White River Marathon For Kenya",
    "city": "Cotter",
    "state": "AR",
    "longitude": -92.5354401,
    "latitude": 36.2711798,
    "run_types": "5 km, half-marathon, marathon"
  }
]